{
  "results": [
    {
      "id": 745044,
      "name": "Istanbul",
      "latitude": 41.01384,
      "longitude": 28.94966,
      "elevation": 39.0,
      "feature_code": "PPLA",
      "country_code": "TR",
      "admin1_id": 745042,
      "timezone": "Europe/Istanbul",
      "population": 14804116,
      "postcodes": [
        "34122"
      ],
      "country_id": 298795,
      "country": "Turkey",
      "admin1": "Istanbul"
    },
    {
      "id": 10953465,
      "name": "İstanbulboğazı",
      "latitude": 41.0641,
      "longitude": 37.71004,
      "elevation": 433.0,
      "feature_code": "PPL",
      "country_code": "TR",
      "admin1_id": 741098,
      "timezone": "Europe/Istanbul",
      "country_id": 298795,
      "country": "Turkey",
      "admin1": "Ordu"
    },
    {
      "id": 11838481,
      "name": "Istanbul Airport",
      "latitude": 41.2629,
      "longitude": 28.74242,
      "elevation": 114.0,
      "feature_code": "AIRP",
      "country_code": "TR",
      "admin1_id": 745042,
      "admin2_id": 8521528,
      "timezone": "Europe/Istanbul",
      "country_id": 298795,
      "country": "Turkey",
      "admin1": "Istanbul",
      "admin2": "Arnavutköy"
    },
    {
      "id": 6299743,
      "name": "Istanbul Atatürk Airport",
      "latitude": 40.97692,
      "longitude": 28.81461,
      "elevation": 49.0,
      "feature_code": "AIRP",
      "country_code": "TR",
      "admin1_id": 745042,
      "timezone": "Europe/Istanbul",
      "country_id": 298795,
      "country": "Turkey",
      "admin1": "Istanbul"
    },
    {
      "id": 6299773,
      "name": "Istanbul Sabiha Gökçen International Airport",
      "latitude": 40.89861,
      "longitude": 29.30917,
      "elevation": 95.0,
      "feature_code": "AIRP",
      "country_code": "TR",
      "admin1_id": 745042,
      "admin2_id": 7732579,
      "timezone": "Europe/Istanbul",
      "country_id": 298795,
      "country": "Turkey",
      "admin1": "Istanbul",
      "admin2": "Pendik"
    }
  ],
  "generationtime_ms": 1.0989904
}